id,name,lat,lng,attendees,date,duration
1,Street Festival,52.523,13.406,500,2023-04-15,6
2,Farmers Market,52.528,13.412,300,2023-04-16,4
3,Concert,52.519,13.398,1000,2023-04-14,3
4,Art Exhibition,52.525,13.402,200,2023-04-17,8
5,Food Festival,52.521,13.395,750,2023-04-18,5
6,Sports Event,52.517,13.407,450,2023-04-15,4